{"type":"FeatureCollection","features":[{"type":"Feature","properties":{"name":"Testcenter","address":"Am Hawerkamp 29a","info":"<a href=\"https://15minutentest.de/muenster\" target=\"_blank\" title=\"öffnet Seite in neuem Fenster\" class=\"extern\">15minutentest.de/muenster</a>"},"geometry":{"type":"Point","coordinates":[7.6393926,51.9451842]}},{"type":"Feature","properties":{"name":"Drive-In am HIT-Markt","address":"Geringhoffstraße 44","info":"<a href=\"https://testanddrive.de\" target=\"_blank\" title=\"öffnet Seite in neuem Fenster\" class=\"extern\">testanddrive.de</a>"},"geometry":{"type":"Point","coordinates":[7.598402,51.9290666]}},{"type":"Feature","properties":{"name":"Dr. Claus-Dietmer Richter","address":"Windthorststraße 65","info":"Tel. 0251/43377"},"geometry":{"type":"Point","coordinates":[7.6282837,51.9592018]}},{"type":"Feature","properties":{"name":"Gemeinschaftspraxis, Dr. Rolf Surmann","address":"Windthorststraße 8","info":"Tel. 0251/58800 (ab 22.3.)"},"geometry":{"type":"Point","coordinates":[7.6331943,51.9571486]}},{"type":"Feature","properties":{"name":"Infektiologische Praxisgemeinschaft, Dr. Heiner Busch, Dr. Stefan Christensen","address":"Salzstraße 58","info":"Tel. 0251/98 700 0"},"geometry":{"type":"Point","coordinates":[7.6291823,51.9623615]}},{"type":"Feature","properties":{"name":"Gemeinschaftspraxis Dr. Cathrin Meyer-Tassler, Dr. Barbara Stöckmann","address":"Salzstraße 29","info":"Tel. 0251/43570"},"geometry":{"type":"Point","coordinates":[7.6332584,51.9605533]}},{"type":"Feature","properties":{"name":"Praxis Kiepenkerl, Dr. Ralf Becker, Christiane Beiske, Dr. Andrea Karsch, Dr. Christina Niebuhr","address":"Bogenstraße 15-16","info":"Tel. 0251/98163840"},"geometry":{"type":"Point","coordinates":[7.6270614781768655,51.9640421]}},{"type":"Feature","properties":{"name":"Dr. Hubertus Egbring","address":"Rothenburg 49","info":"Tel. 0251/47517"},"geometry":{"type":"Point","coordinates":[7.6267773,51.9609418]}},{"type":"Feature","properties":{"name":"HNO münsterland, Dr. Eikenbusch und Dr. Hermann","address":"Bült 13","info":"Tel. 0251/56399 info@hno-muensterland.de"},"geometry":{"type":"Point","coordinates":[7.631325,51.964139]}},{"type":"Feature","properties":{"name":"Dermatologie MS, Dr. Anja Brinkmann","address":"Hohenzollernring 10-12","info":"termine@dermatologie.ms"},"geometry":{"type":"Point","coordinates":[7.6467226,51.9564142]}},{"type":"Feature","properties":{"name":"MVZ Medicum Münster, Dr. Tanja Heuerman, Dr. Michael Verpoort, Dorothee Mühlberger","address":"Warendorfer Straße 185","info":"Tel. 0251/23938020"},"geometry":{"type":"Point","coordinates":[7.6570769,51.9673315]}},{"type":"Feature","properties":{"name":"Praxis Mauritztor, Margitta Orgaß-Krüger","address":"Warendorfer Straße 3","info":"Tel. 0251/42244"},"geometry":{"type":"Point","coordinates":[7.6366434,51.9619828]}},{"type":"Feature","properties":{"name":"Gemeinschaftspraxis Münster-Mauritz, Dr. Viktor Egen, Dr. Christina und Dr. Bernd Fallenberg","address":"Warendorfer Straße 77","info":"Tel. 0251/36663"},"geometry":{"type":"Point","coordinates":[7.6456824215832455,51.9631745]}},{"type":"Feature","properties":{"name":"HNO Zentrum Münsterland, Dr. B. Hustert, Prof. Dr. R. Heermann","address":"Warendorfer Str. 97","info":"Tel. 0251/3900450"},"geometry":{"type":"Point","coordinates":[7.6474313,51.9642137]}},{"type":"Feature","properties":{"name":"Dermatologische Gemeinschaftspraxis, Dr. Ottilie Rödder-Wehrmann, Prof. Wolfgang Wehrmann","address":"Warendorfer Straße 183","info":"Tel. 0251/35051"},"geometry":{"type":"Point","coordinates":[7.6566072,51.9674761]}},{"type":"Feature","properties":{"name":"Dr. Thomas Duda","address":"Bohlweg 59","info":"Tel. 0251/2303811"},"geometry":{"type":"Point","coordinates":[7.6440934,51.9677569]}},{"type":"Feature","properties":{"name":"Dr. Sabine Ludt","address":"Kanalstraße 15","info":"Tel. 0251/2301990"},"geometry":{"type":"Point","coordinates":[7.630643953574975,51.96951745]}},{"type":"Feature","properties":{"name":"Praxis Piusallee, Dr. Tim Hartwig","address":"Piusallee 30","info":"Tel. 0251/45013"},"geometry":{"type":"Point","coordinates":[7.6381333,51.9642819]}},{"type":"Feature","properties":{"name":"Dr. Christine Hellwig","address":"Hoher Heckenweg 92B","info":"Tel. 0251-233661"},"geometry":{"type":"Point","coordinates":[7.6433501,51.9778261]}},{"type":"Feature","properties":{"name":"Dr. Carsten Schriek","address":"Gertrudenstr. 29","info":"Tel. 0251/53096910"},"geometry":{"type":"Point","coordinates":[7.6205772,51.9709242]}},{"type":"Feature","properties":{"name":"Gemeinschaftspraxis im Kreuzviertel, Dr. Jürgen Diehle und Dr. Horst Fatum","address":"Altumstraße 15","info":"Tel. 0251/293329"},"geometry":{"type":"Point","coordinates":[7.613995926349325,51.9702955]}},{"type":"Feature","properties":{"name":"Gemeinschaftspraxis Dr. Sonja Susewind, Dr. Sylvia Tjan-Schäpsmeier","address":"Nordstraße 20","info":"Tel. 0251/293081"},"geometry":{"type":"Point","coordinates":[7.6224328135445685,51.96982095]}},{"type":"Feature","properties":{"name":"Hausärztlich-Internistisches Arztzentrum im Kreuzviertel, Dr. Maria Schäper, Dr. Bassam Willenborg","address":"Raesfeldstr. 15","info":"Tel. 0251/9225150"},"geometry":{"type":"Point","coordinates":[7.621749174010297,51.97092755]}},{"type":"Feature","properties":{"name":"Hausarzt in Münster, Dres. Dalmis, Grossekettler, Stöckmann","address":"Lazarett Strasse 3"},"geometry":{"type":"Point","coordinates":[7.615292249077929,51.9676336]}},{"type":"Feature","properties":{"name":"Dr. Dörte Rasch","address":"Scharnhorststr. 46","info":"Tel. 0251/533262"},"geometry":{"type":"Point","coordinates":[7.6130378,51.9529864]}},{"type":"Feature","properties":{"name":"Hausarztpraxis auf der Geist, Marcus Kleinhans, Dr. Armin Schuster, Dr. Cornelia Werbick","address":"Metzer Straße 59","info":"Tel. 0251/9862200 (ab 15.3.)"},"geometry":{"type":"Point","coordinates":[7.6198452,51.939945]}},{"type":"Feature","properties":{"name":"Praxis Dr. Peter Münster","address":"Kappenberger Damm 16","info":"0251/73926. Keine Anmeldung erforderlich."},"geometry":{"type":"Point","coordinates":[7.6097757,51.9392928]}},{"type":"Feature","properties":{"name":"Dr. Irina Hamm","address":"Alfred-Krupp-Weg 3","info":"Tel. 0251-1625941"},"geometry":{"type":"Point","coordinates":[7.631662255307692,51.9460433]}},{"type":"Feature","properties":{"name":"MVZ Medicum Münster, Thomas Post, Dr. Anne Waltering, Dr. Martin Ostermann","address":"Hogenbergstraße 15","info":"Tel. 0251/787330"},"geometry":{"type":"Point","coordinates":[7.62156,51.926945]}},{"type":"Feature","properties":{"name":"HNO am Ludgeriplatz, Frau Dr. med. A. Glitz, Dr. med. K. Garmann","address":"Hammer Str. 7","info":"Tel. 0251/531213"},"geometry":{"type":"Point","coordinates":[7.6264744,51.9546143]}},{"type":"Feature","properties":{"name":"Ärztehaus Mondstraße, Dr. Matthias Döring, Dr. Karen Steinhaus","address":"Mondstrasse 179 - 181","info":"mail@aerztehaus-mondstrasse.de"},"geometry":{"type":"Point","coordinates":[7.6757902,51.9498794]}},{"type":"Feature","properties":{"name":"Dr. Felicitas Runte","address":"Wolbeckerstraße 21","info":"Tel. 0251/60476"},"geometry":{"type":"Point","coordinates":[7.6382166,51.9586301]}},{"type":"Feature","properties":{"name":"HNO im Hansaviertel, Frau Dr. K. Landmann-Heinz, Frau Dr. med. K. Suthues","address":"Wolbecker Str. 75","info":"Tel. 0251/664866"},"geometry":{"type":"Point","coordinates":[7.643585,51.9563549]}},{"type":"Feature","properties":{"name":"Hausarztpraxis am Hansaring, Birgit Aufderhaar-Wölke, Dr. Daniel Wölke","address":"Hansaring 67","info":"Tel. 0251/64273"},"geometry":{"type":"Point","coordinates":[7.644441,51.9543534]}},{"type":"Feature","properties":{"name":"Dr. Ulrike Schmitz-Nahrath","address":"Kötterstraße 1","info":"Tel. 0251/9277055"},"geometry":{"type":"Point","coordinates":[7.701730525241777,51.9853566]}},{"type":"Feature","properties":{"name":"Dr. Martina Terstiege","address":"Westerheide 22","info":"Tel. 0251-1442874 (ab 15.3.)"},"geometry":{"type":"Point","coordinates":[7.6755195,52.028358]}},{"type":"Feature","properties":{"name":"Medicum Münster, Dr. Peter Hamann","address":"Handorfer Str. 10","info":"Tel. 0251/324481"},"geometry":{"type":"Point","coordinates":[7.698491293896753,51.9874538]}},{"type":"Feature","properties":{"name":"MVZ Medicum Münster, Dr. Hendrik Oen, Dr. Mathias Oen, Dr. Mayke Austermann, Dr. Hans-Jürgen Rauba","address":"Handorferstrasse 20","info":"ohne Anmeldung"},"geometry":{"type":"Point","coordinates":[7.698739407894754,51.98644745]}},{"type":"Feature","properties":{"name":"Dr. Martina Hoppe, Dr. Nicola Lüpke","address":"Reinerskamp 1","info":"Tel. 0251/23938020"},"geometry":{"type":"Point","coordinates":[7.710789823735635,51.9973709]}},{"type":"Feature","properties":{"name":"EP Dr. Veronika Engelbertz von Eiff","address":"Idenbrockplatz 24","info":"Tel. 0251/213340"},"geometry":{"type":"Point","coordinates":[7.6024556,51.9954226]}},{"type":"Feature","properties":{"name":"Gemeinschaftspraxis Dr. Derya Önaldi-Mohr","address":"Idenbrockplatz 28","info":"Tel. 0157/58201653"},"geometry":{"type":"Point","coordinates":[7.603185094504875,51.99452325]}},{"type":"Feature","properties":{"name":"Georg Wünstel","address":"Neuer Heidkamp 12","info":"Tel. 0251/211615"},"geometry":{"type":"Point","coordinates":[7.60361434721665,51.993435250000005]}},{"type":"Feature","properties":{"name":"Dr. Carsten Borchard","address":"Grevener Straße 440","info":"Tel. 0251/213032"},"geometry":{"type":"Point","coordinates":[7.613539527571797,51.99676225]}},{"type":"Feature","properties":{"name":"Gemeinschaftspraxis Dr. Sabine Adolf, Dr. Dr. Katja Kemmerling, Dr. Silke Niepagenkemper","address":"Marktallee 11","info":"Tel. 02501/2196"},"geometry":{"type":"Point","coordinates":[7.6395127,51.9032286]}},{"type":"Feature","properties":{"name":"Gemeinschaftspraxis Dres. Fuchs &amp; Hieronymus","address":"Gartenstiege 1","info":"Tel. 02533/2022"},"geometry":{"type":"Point","coordinates":[7.560546105426373,51.998362900000004]}},{"type":"Feature","properties":{"name":"Stefan Marschalleck","address":"Davertstraße 55","info":"Tel. 02501/58160 und 02501/9639735 marschalleck@muenster.de"},"geometry":{"type":"Point","coordinates":[7.606960031582506,51.88269355]}},{"type":"Feature","properties":{"name":"Anne Lodde","address":"Davertstr. 48","info":"Tel. 02501/3514"},"geometry":{"type":"Point","coordinates":[7.6061999,51.8831237]}},{"type":"Feature","properties":{"name":"Allgemeinmedizinische Praxis Dr. Wolf-Ulrich Mader &amp; Dr. Stefan Blüggel","address":"Theodor-Storm-Straße 2","info":"Tel. 02501/262626"},"geometry":{"type":"Point","coordinates":[7.632625978982118,51.90038705]}},{"type":"Feature","properties":{"name":"Dr. Michael Speidel","address":"Ringstrasse 151","info":"Tel. 02501/2043 (ab 29.3.)"},"geometry":{"type":"Point","coordinates":[7.664397563979117,51.90637255]}},{"type":"Feature","properties":{"name":"Gemeinschaftspraxis Dr. Gabriele Fuchs, Harald Kuiper","address":"Marktallee 19","info":"Tel. 0251/6055"},"geometry":{"type":"Point","coordinates":[7.6467184,51.9064351]}},{"type":"Feature","properties":{"name":"Praxis für Kinder- und Jugendmedizin, Burkhard Frase, Dr. Catrin Schulze Höping","address":"Marktallee 53","info":"Tel. 02501/44840"},"geometry":{"type":"Point","coordinates":[7.645720427043168,51.90452195]}},{"type":"Feature","properties":{"name":"HNO münsterland, Dr. Schwering, Dr. Meuth","address":"Westfalenstrasse 132","info":"Tel. 02501/3009 info@hno-muensterland.de"},"geometry":{"type":"Point","coordinates":[7.6338913,51.9066527]}},{"type":"Feature","properties":{"name":"Dr. Bernd Unbehaun","address":"Münsterstraße 3","info":"(nur eigene Patienten, ab 13.3.)"},"geometry":{"type":"Point","coordinates":[7.7279869,51.917238]}},{"type":"Feature","properties":{"name":"Dr. Wolfgang Zeeden","address":"Albersloher Weg 419","info":"Tel. 0251/614883"},"geometry":{"type":"Point","coordinates":[7.6665009,51.9299605]}},{"type":"Feature","properties":{"name":"Gemeinschaftspraxis Dr. Timo Altenkämper, Dr. Christina Mosler, Dr. Achim Schick","address":"Albersloher Weg 467","info":"Tel. 0251/61328"},"geometry":{"type":"Point","coordinates":[7.6700602,51.9265293]}},{"type":"Feature","properties":{"name":"Dr. Domingos Schrader","address":"Münsterstraße 9","info":"Tel. 02506-1264"},"geometry":{"type":"Point","coordinates":[7.7280971,51.9175166]}},{"type":"Feature","properties":{"name":"Praxis Pommernstraße, Dr. Johannes Fühner, Julia Hegge","address":"Pommernstrasse 4","info":"Tel. 0251/61141"},"geometry":{"type":"Point","coordinates":[7.676654262100639,51.9196691]}},{"type":"Feature","properties":{"name":"Adler Apotheke","address":"Salzstraße 58","info":"Tel. 0251/414710"},"geometry":{"type":"Point","coordinates":[7.6291823,51.9623615]}},{"type":"Feature","properties":{"name":"Kiepenkerl Apotheke","address":"Bergstraße 10","info":"Tel. 0251/46964  (ab 15.3.)"},"geometry":{"type":"Point","coordinates":[7.6262139,51.964966]}},{"type":"Feature","properties":{"name":"Jahreszeiten Apotheke","address":"Catharina-Müller-Straße 2","info":"Tel. 0251/2705027"},"geometry":{"type":"Point","coordinates":[7.6111886,51.9730559]}},{"type":"Feature","properties":{"name":"St. Georg Apotheke","address":"Hammer Straße 13","info":"Tel. 0251/531480"},"geometry":{"type":"Point","coordinates":[7.6263766,51.9544861]}},{"type":"Feature","properties":{"name":"Süd-Apotheke","address":"Hammer Straße 101","info":"Tel. 0251/7774880"},"geometry":{"type":"Point","coordinates":[7.624105983105308,51.94691755]}},{"type":"Feature","properties":{"name":"Hansa-Apotheke","address":"Wolbecker Straße 65","info":"Tel. 0251/64498 (ab 15.3.)"},"geometry":{"type":"Point","coordinates":[7.6420342,51.9569265]}},{"type":"Feature","properties":{"name":"Margareten-Apotheke und Park-Apotheke in den Räumlichkeiten der „Alten Apotheke“","address":"Wolbecker Straße 304","info":"Tel. 0251/381237 oder 0251/314756"},"geometry":{"type":"Point","coordinates":[7.67093559035354,51.9506788]}},{"type":"Feature","properties":{"name":"Coerde-Apotheke","address":"Hamannplatz 11","info":"Tel. 0251/247171"},"geometry":{"type":"Point","coordinates":[7.647115111206442,51.9936578]}},{"type":"Feature","properties":{"name":"Hubertus-Apotheke Handorf","address":"Handorfer Straße 4","info":"Tel. 0251/328955"},"geometry":{"type":"Point","coordinates":[7.6988113,51.9882356]}},{"type":"Feature","properties":{"name":"Kiepenkerl Apotheke","address":"Meesenstiege 54a","info":"Tel. 01501/921577 (ab 15.3.)"},"geometry":{"type":"Point","coordinates":[7.625234509956606,51.9029746]}}]}